{
    "status": "1",
    "response": {
        "poilist": [
            {
                "id": "17",
                "name": "Meherangarh Fort",
                "city": "Jodhpur",
                "besttime": "Anytime",
                "rank": "1",
                "geolat": "26.238947",
                "geolong": "73.024309",
                "image": "http://image3.mouthshut.com/images/imagesp/925738452s.jpg",
                "hoursspent": "4"
            },
            {
                "id": "18",
                "name": "Taj Mahal",
                "city": "Agra",
                "besttime": "Sun rise & Sun set",
                "rank": "2",
                "geolat": "27.175015",
                "geolong": "78.042155",
                "image": "http://navbharattimes.indiatimes.com/photo/47042680/Taj-Mahal.jpg",
                "hoursspent": "6"
            },
            {
                "id": "19",
                "name": "Khajuraho Temples",
                "city": "Khajuraho",
                "besttime": "Anytime",
                "rank": "3",
                "geolat": "24.847566",
                "geolong": "79.933961",
                "image": "http://www.maadurgawallpaper.com/wp-content/uploads/2014/08/Khajuraho-Temple-1.jpg",
                "hoursspent": "3"
            },
            {
                "id": "20",
                "name": "Amber (Amer) Fort and Palace",
                "city": "Jaipur",
                "besttime": "Anytime",
                "rank": "4",
                "geolat": "26.985312",
                "geolong": "75.850524",
                "image": "http://ilovejaipur.com/wp-content/uploads/2012/11/Amber-Amer-Fort-and-Palace-1.jpg",
                "hoursspent": "6"
            },
            {
                "id": "21",
                "name": "Tomb of Itimad-ud-Daulah",
                "city": "Agra",
                "besttime": "Morning 7 AM to 11:00 AM",
                "rank": "5",
                "geolat": "27.176670",
                "geolong": "78.008075",
                "image": "http://m.mobsea.org/appimg/Agra/image13.jpg",
                "hoursspent": "2"
            },
            {
                "id": "22",
                "name": "Mysore Maharajahs Palace (Amba Vilas)",
                "city": "Mysore",
                "besttime": "Anytime",
                "rank": "6",
                "geolat": "12.303889",
                "geolong": "76.654444",
                "image": "http://tourmet.com/wp-content/uploads/2014/11/Amba-Vilas-Palace-Mysore-Palace.jpg",
                "hoursspent": "8"
            },
            {
                "id": "23",
                "name": "Swaminarayan Akshardham",
                "city": "New Delhi",
                "besttime": "Evening - 4:00 PM to 8:00 PM",
                "rank": "7",
                "geolat": "28.613519",
                "geolong": "77.277286",
                "image": "http://akshardham.com/newdelhi/wp-content/uploads/2015/06/swaminarayan_akshardham_mandir.jpg",
                "hoursspent": "2"
            },
            {
                "id": "24",
                "name": "Qutab Minar",
                "city": "New Delhi",
                "besttime": "Anytime",
                "rank": "8",
                "geolat": "28.524410",
                "geolong": "77.185466",
                "image": "http://images.mapsofworld.com/allwonders/qutub-minar.jpg",
                "hoursspent": "3"
            },
            {
                "id": "25",
                "name": "Jaisalmer Fortress",
                "city": "Jaisalmer",
                "besttime": "Evening",
                "rank": "9",
                "geolat": "26.912259",
                "geolong": "70.910977",
                "image": "http://tourmet.com/wp-content/uploads/2014/07/night-view-of-jaisalmer-fort-.jpg",
                "hoursspent": "3"
            },
             {
                "id": "26",
                "name": "City Palace of Udaipur",
                "city": "Udaipur",
                "besttime": "Morning",
                "rank": "10",
                "geolat": "24.578030",
                "geolong": "73.683715",
                "image": "http://www.hotelbabapalace.com/images/city_palace_large.jpg",
                "hoursspent": "5"
            }
        ]
    }
}